,59,080,15,31,50,344,20,29,21,087,14,25,19,038,21*7B
$GPGSV,3,3,10,03,12,318,14,23,01,159,*7A
$GPRMC,062942.831,A,2223.0533,N,11357.9584,E,0.22,61.16,261122,,,A*5E
$GPVTG,61.16,T,,M,0.22,N,0.4,K,N*36
$GPGGA,062943.831,2223.0534,N,11357.9583,E,1,03,4.3,2.2,M,-2.2,M,,0000*40
$GPRMC,062943.831,A,2223.0534,N,11357.9583,E,0.20,99.61,261122,,,A*5A
$GPVTG,99.61,T,,M,0.20,N,0.4,K,N*33
$GPGGA,062944.831,2223.0534,N,11357.9583,E,1,03,4.3,2.2,M,-2.2,M,,0000*47
$GPRMC,062944.831,A,2223.0534,N,11357.9583,E,0.17,80.46,261122,,,A*54
$GPVTG,80.46,T,,M,0.17,N,0.3,K,N*3D
$GPGGA,062945.831,2223.0534,N,11357.9582,E,1,03,4.3,2.2,M,-2.2,M,,0000*47
$GPRMC,062945.831,A,2223.0534,N,11357.9582,E,0.22,78.53,261122,,,A*51
$GPVTG,78.53,T,,M,0.22,N,0.4,K,N*3F
$GPGGA,062946.831,2223.0535,N,11357.9581,E,1,03,4.3,2.2,M,-2.2,M,,0000*46
$GPRMC,062946.831,A,2223.0535,N,11357.9581,E,0.17,129.03,261122,,,A*66
$GPVTG,129.03,T,,M,0.17,N,0.3,K,N*0E
$GPGGA,062947.831,2223.0536,N,11357.9581,E,1,03,4.3,2.2,M,-2.2,M,,0000*44
$GPGSA,A,2,10,26,16,,,,,,,,,,4.4,4.3,1.0*37
$GPGSV,3,1,10,26,59,222,30,10,27,174,35,16,25,211,34,22,59,008,*72
$GPGSV,3,2,10,32,59,080,16,31,50,344,09,29,21,087,11,25,18,038,21*77
$GPGSV,3,3,10,03,12,318,13,23,01,159,*7D
$GPRMC,062947.831,A,2223.0536,N,11357.9581,E,0.25,74.94,261122,,,A*52
$GPVTG,74.94,T,,M,0.25,N,0.5,K,N*3E
$GPGGA,062948.831,2223.0537,N,11357.9580,E,1,03,4.3,2.2,M,-2.2,M,,0000*4B
$GPRMC,062948.831,A,2223.0537,N,11357.9580,E,0.30,61.97,261122,,,A*5E
$GPVTG,61.97,T,,M,0.30,N,0.6,K,N*3E
$GPGGA,062949.831,2223.0538,N,11357.9579,E,1,03,4.3,2.2,M,-2.2,M,,0000*43
$GPRMC,062949.831,A,2223.0538,N,11357.9579,E,0.35,42.79,261122,,,A*52
$GPVTG,42.79,T,,M,0.35,N,0.7,K,N*3B
$GPGGA,062950.831,2223.0539,N,11357.9578,E,1,03,4.3,2.2,M,-2.2,M,,0000*4B
$GPRMC,062950.831,A,2223.0539,N,11357.9578,E,0.28,49.77,261122,,,A*53
$GPVTG,49.77,T,,M,0.28,N,0.5,K,N*30
$GPGGA,062951.831,2223.0541,N,11357.9579,E,1,03,4.3,2.2,M,-2.2,M,,0000*44
$GPRMC,062951.831,A,2223.0541,N,11357.9579,E,0.16,119.86,261122,,,A*6B
$GPVTG,119.86,T,,M,0.16,N,0.3,K,N*01
$GPGGA,062952.831,2223.0542,N,11357.9578,E,1,03,4.3,2.2,M,-2.2,M,,0000*45
$GPGSA,A,2,10,26,16,,,,,,,,,,4.4,4.3,1.0*37
$GPGSV,3,1,10,26,59,222,30,10,27,174,35,16,25,211,34,22,59,008,*72
$GPGSV,3,2,10,32,59,080,15,31,50,344,,29,21,087,11,25,18,038,21*7D
$GPGSV,3,3,10,03,12,318,12,23,01,159,*7C
$GPRMC,062952.831,A,2223.0542,N,11357.9578,E,0.30,66.67,261122,,,A*58
$GPVTG,66.67,T,,M,0.30,N,0.5,K,N*35
$GPGGA,062953.831,2223.0543,N,11357.9578,E,1,03,4.3,2.2,M,-2.2,M,,0000*45
$GPRMC,062953.831,A,2223.0543,N,11357.9578,E,0.14,99.61,261122,,,A*58
$GPVTG,99.61,T,,M,0.14,N,0.3,K,N*33
$GPGGA,062954.831,2223.0545,N,11357.9579,E,1,03,4.2,2.2,M,-2.2,M,,0000*44
$GPRMC,062954.831,A,2223.0545,N,11357.9579,E,0.35,56.72,261122,,,A*5A
$GPVTG,56.72,T,,M,0.35,N,0.7,K,N*35
$GPGGA,062955.831,2223.0546,N,11357.9578,E,1,03,4.2,2.2,M,-2.2,M,,0000*47
$GPRMC,062955.831,A,2223.0546,N,11357.9578,E,0.28,58.47,261122,,,A*5D
$GPVTG,58.47,T,,M,0.28,N,0.5,K,N*33
$GPGGA,062956.831,2223.0546,N,11357.9578,E,1,03,4.2,2.2,M,-2.2,M,,0000*44
$GPRMC,062956.831,A,2223.0546,N,11357.9578,E,0.24,65.33,261122,,,A*5F
$GPVTG,65.33,T,,M,0.24,N,0.4,K,N*33
$GPGGA,062957.831,2223.0548,N,11357.9578,E,1,03,4.2,2.2,M,-2.2,M,,0000*4B
$GPGSA,A,2,10,26,16,,,,,,,,,,4.4,4.2,1.0*36
$GPGSV,3,1,10,26,59,222,29,10,27,174,36,16,25,211,34,22,59,008,*79
$GPGSV,3,2,10,32,59,080,15,31,50,344,23,29,21,087,,25,18,038,21*7C
$GPGSV,3,3,10,03,12,318,12,23,01,159,*7C
$GPRMC,062957.831,A,2223.0548,N,11357.9578,E,0.42,49.74,261122,,,A*5D
$GPVTG,49.74,T,,M,0.42,N,0.8,K,N*32
$GPGGA,062958.831,2223.0548,N,11357.9578,E,1,03,4.2,2.2,M,-2.2,M,,0000*44
$GPRMC,062958.831,A,2223.0548,N,11357.9578,E,0.28,77.36,261122,,,A*55
$GPVTG,77.36,T,,M,0.28,N,0.5,K,N*38
$GPGGA,062959.831,2223.0548,N,11357.9578,E,1,03,4.2,2.2,M,-2.2,M,,0000*45
$GPRMC,062959.831,A,2223.0548,N,11357.9578,E,0.20,75.59,261122,,,A*57
$GPVTG,75.59,T,,M,0.20,N,0.4,K,N*3A
$GPGGA,063000.831,2223.0548,N,11357.9578,E,1,03,4.2,2.2,M,-2.2,M,,0000*41
$GPRMC,063000.831,A,2223.0548,N,11357.9578,E,0.25,59.65,261122,,,A*57
$GPVTG,59.65,T,,M,0.25,N,0.5,K,N*3F
$GPGGA,063001.831,2223.0549,N,11357.9578,E,1,03,4.2,2.2,M,-2.2,M,,0000*41
$GPRMC,063001.831,A,2223.0549,N,11357.9578,E,0.20,75.59,261122,,,A*53
$GPVTG,75.59,T,,M,0.20,N,0.4,K,N*3A
$GPGGA,063002.831,2223.0549,N,11357.9578,E,1,03,4.2,2.2,M,-2.2,M,,0000*42
$GPGSA,A,2,10,26,16,,,,,,,,,,4.4,4.2,1.0*36
$GPGSV,3,1,10,26,59,222,29,10,27,174,35,16,25,211,34,22,59,008,*7A
$GPGSV,3,2,10,32,59,080,15,31,50,344,23,29,21,087,24,25,18,038,20*7B
$GPGSV,3,3,10,03,12,318,13,23,01,159,*7D
$GPRMC,063002.831,A,2223.0549,N,11357.9578,E,0.30,53.86,261122,,,A*57
$GPVTG,53.86,T,,M,0.30,N,0.6,K,N*3F
$GPGGA,063003.831,2223.0549,N,11357.9578,E,1,03,4.2,2.2,M,-2.2,M,,0000*43
$GPRMC,063003.831,A,2223.0549,N,11357.9578,E,0.32,49.74,261122,,,A*52
$GPVTG,49.74,T,,M,0.32,N,0.6,K,N*3B
$GPGGA,063004.831,2223.0549,N,11357.9579,E,1,03,4.2,2.2,M,-2.2,M,,0000*45
$GPRMC,063004.831,A,2223.0549,N,11357.9579,E,0.44,41.38,261122,,,A*55
$GPVTG,41.38,T,,M,0.44,N,0.8,K,N*34
$GPGGA,063005.831,2223.0550,N,11357.9579,E,1,03,4.2,2.2,M,-2.2,M,,0000*4C
$GPRMC,063005.831,A,2223.0550,N,11357.9579,E,0.35,56.72,261122,,,A*52
$GPVTG,56.72,T,,M,0.35,N,0.7,K,N*35
$GPGGA,063006.831,2223.0550,N,11357.9579,E,1,03,4.2,2.2,M,-2.2,M,,0000*4F
$GPRMC,063006.831,A,2223.0550,N,11357.9579,E,0.27,63.45,261122,,,A*50
$GPVTG,63.45,T,,M,0.27,N,0.5,K,N*36
